{
"type": "FeatureCollection",
"name": "LocationsGeoJson",
"crs": { "type": "name", "properties": { "name": "urn:ogc:def:crs:EPSG::3857" } },
"features": [
{ "type": "Feature", "properties": { "Name": "1250 Portage Avenue _ West End", "Address": "1250 Portage Avenue Winnipeg Manitoba R3G 0T6", "Latitude": 49.88289065, "Longitude": -97.1859394, "city": "Winnipeg", "county": "Division No. 11", "state": "Manitoba", "state_code": "MB", "country": "Canada", "country_co": "CA" }, "geometry": { "type": "Point", "coordinates": [ -10818689.286273943260312, 6426019.211801514960825 ] } },
{ "type": "Feature", "properties": { "Name": "3161 Portage Avenue - St. James", "Address": "3161 Portage Avenue Winnipeg Manitoba R3K 0W4", "Latitude": 49.881152, "Longitude": -97.28716, "city": "Winnipeg", "county": "Division No. 11", "state": "Manitoba", "state_code": "MB", "country": "Canada", "country_co": "CA" }, "geometry": { "type": "Point", "coordinates": [ -10829957.111923731863499, 6425718.844700487330556 ] } },
{ "type": "Feature", "properties": { "Name": "Altona", "Address": "129-3rd Ave. N.E. Altona MB R0G 0B0", "Latitude": 49.105751, "Longitude": -97.554362, "city": "Altona", "county": "Division No. 3", "state": "Manitoba", "state_code": "MB", "country": "Canada", "country_co": "CA" }, "geometry": { "type": "Point", "coordinates": [ -10859701.902502676472068, 6292824.212760692462325 ] } },
{ "type": "Feature", "properties": { "Name": "Arborg", "Address": "250 Main Street Arborg MB R0C 0A0", "Latitude": 50.906713, "Longitude": -97.217818, "city": "Arborg", "county": "Division No. 18", "state": "Manitoba", "state_code": "MB", "country": "Canada", "country_co": "CA" }, "geometry": { "type": "Point", "coordinates": [ -10822237.995793145149946, 6604808.892044044099748 ] } },
{ "type": "Feature", "properties": { "Name": "Ashern", "Address": "4 highway 6 Ashern MB R0C 0E0", "Latitude": 51.183333, "Longitude": -98.333333, "city": "Municipality of West Interlake", "county": "Division No. 18", "state": "Manitoba", "state_code": "MB", "country": "Canada", "country_co": "CA" }, "geometry": { "type": "Point", "coordinates": [ -10946416.557565404102206, 6653787.503281109966338 ] } },
{ "type": "Feature", "properties": { "Name": "Beausejour", "Address": "613 Park Avenue Beausejour MB R0E 0C0", "Latitude": 50.062022, "Longitude": -96.515772, "city": "Beausejour", "county": "Division No. 12", "state": "Manitoba", "state_code": "MB", "country": "Canada", "country_co": "CA" }, "geometry": { "type": "Point", "coordinates": [ -10744086.592559691518545, 6457023.895255188457668 ] } },
{ "type": "Feature", "properties": { "Name": "Birds Hill", "Address": "3187 Birds Hill Road East St. Paul MB R2E 1H3", "Latitude": 49.975214, "Longitude": -97.005586, "city": "Birds Hill", "county": "Division No. 13", "state": "Manitoba", "state_code": "MB", "country": "Canada", "country_co": "CA" }, "geometry": { "type": "Point", "coordinates": [ -10798612.437623107805848, 6441984.448425428010523 ] } },
{ "type": "Feature", "properties": { "Name": "Carman", "Address": "3-1st Ave. S.W. �Carman MB R0G 0J0", "Latitude": 49.5086025, "Longitude": -98.0020671, "city": "Carman", "county": "Division No. 3", "state": "Manitoba", "state_code": "MB", "country": "Canada", "country_co": "CA" }, "geometry": { "type": "Point", "coordinates": [ -10909540.206260228529572, 6361605.39329391811043 ] } },
{ "type": "Feature", "properties": { "Name": "Dominion City", "Address": "122 Waddell Ave. Dominion City MB R0A 0H0", "Latitude": 49.1421583, "Longitude": -97.1648474, "city": "Municipality of Emerson � Franklin", "county": "Division No. 2", "state": "Manitoba", "state_code": "MB", "country": "Canada", "country_co": "CA" }, "geometry": { "type": "Point", "coordinates": [ -10816341.335574131458998, 6299017.197342935018241 ] } },
{ "type": "Feature", "properties": { "Name": "Donald", "Address": "171 Donald Street Winnipeg Manitoba R3C 1M4", "Latitude": 49.889932, "Longitude": -97.14103345, "city": "Winnipeg", "county": "Division No. 11", "state": "Manitoba", "state_code": "MB", "country": "Canada", "country_co": "CA" }, "geometry": { "type": "Point", "coordinates": [ -10813690.378786353394389, 6427235.777662300504744 ] } },
{ "type": "Feature", "properties": { "Name": "Dugald", "Address": "27016 Dugald Road Dugald MB R0E 0K0", "Latitude": 49.8859088, "Longitude": -96.8428221, "city": "Rural Municipality of Springfield", "county": "Division No. 12", "state": "Manitoba", "state_code": "MB", "country": "Canada", "country_co": "CA" }, "geometry": { "type": "Point", "coordinates": [ -10780493.643155580386519, 6426540.649485933594406 ] } },
{ "type": "Feature", "properties": { "Name": "Emerson", "Address": "13 Main Street Emerson MB R0A 0L0", "Latitude": 49.006554, "Longitude": -97.215196, "city": "Municipality of Emerson � Franklin", "county": "Division No. 3", "state": "Manitoba", "state_code": "MB", "country": "Canada", "country_co": "CA" }, "geometry": { "type": "Point", "coordinates": [ -10821946.116088286042213, 6275973.543857767246664 ] } },
{ "type": "Feature", "properties": { "Name": "Eriksdale", "Address": "4 Railway Avenue Eriksdale MB R0C 0W0", "Latitude": 50.8640993, "Longitude": -98.1049794, "city": "Municipality of West Interlake", "county": "Division No. 18", "state": "Manitoba", "state_code": "MB", "country": "Canada", "country_co": "CA" }, "geometry": { "type": "Point", "coordinates": [ -10920996.351092593744397, 6597289.577683257870376 ] } },
{ "type": "Feature", "properties": { "Name": "Fisher Branch", "Address": "48 Tache Street Fisher Branch MB R0C 0Z0", "Latitude": 51.0820872, "Longitude": -97.6039437, "city": "Rural Municipality of Fisher", "county": "Division No. 18", "state": "Manitoba", "state_code": "MB", "country": "Canada", "country_co": "CA" }, "geometry": { "type": "Point", "coordinates": [ -10865221.31209934130311, 6635826.862981546670198 ] } },
{ "type": "Feature", "properties": { "Name": "Gimli", "Address": "34 centre Street Gimli MB R0C 1B0", "Latitude": 50.632337, "Longitude": -96.988202, "city": "Gimli", "county": "Division No. 18", "state": "Manitoba", "state_code": "MB", "country": "Canada", "country_co": "CA" }, "geometry": { "type": "Point", "coordinates": [ -10796677.259595157578588, 6556514.277776877395809 ] } },
{ "type": "Feature", "properties": { "Name": "Gretna", "Address": "542 Hespeler Avenue Gretna MB R0G 0V0", "Latitude": 49.008157, "Longitude": -97.561359, "city": "Gretna", "county": "Division No. 3", "state": "Manitoba", "state_code": "MB", "country": "Canada", "country_co": "CA" }, "geometry": { "type": "Point", "coordinates": [ -10860480.804979756474495, 6276245.579595882445574 ] } },
{ "type": "Feature", "properties": { "Name": "Grunthal", "Address": "164 Main Street Grunthal MB R0A 0R0", "Latitude": 49.406281, "Longitude": -96.857571, "city": "Rural Municipality of Hanover", "county": "Division No. 2", "state": "Manitoba", "state_code": "MB", "country": "Canada", "country_co": "CA" }, "geometry": { "type": "Point", "coordinates": [ -10782135.483193339779973, 6344082.069215793162584 ] } },
{ "type": "Feature", "properties": { "Name": "Headingley", "Address": "5240 Portage Avenue Headingley MB R4H 1E1", "Latitude": 49.8753806, "Longitude": -97.3852622, "city": "Headingley", "county": "Division No. 11", "state": "Manitoba", "state_code": "MB", "country": "Canada", "country_co": "CA" }, "geometry": { "type": "Point", "coordinates": [ -10840877.79887343198061, 6424721.862058163620532 ] } },
{ "type": "Feature", "properties": { "Name": "Henderson", "Address": "1200 Henderson Highway Winnipeg Manitoba R2G 1L6", "Latitude": 49.940084, "Longitude": -97.091441, "city": "Winnipeg", "county": "Division No. 11", "state": "Manitoba", "state_code": "MB", "country": "Canada", "country_co": "CA" }, "geometry": { "type": "Point", "coordinates": [ -10808169.772505164146423, 6435905.903842502273619 ] } },
{ "type": "Feature", "properties": { "Name": "Lac du Bonnet", "Address": "2 Park Avenue Lac du Bonnet MB R0E 1A0", "Latitude": 50.32149909, "Longitude": -95.91581434, "city": "Rural Municipality of Lac du Bonnet", "county": "Division No. 1", "state": "Manitoba", "state_code": "MB", "country": "Canada", "country_co": "CA" }, "geometry": { "type": "Point", "coordinates": [ -10677299.611350966617465, 6502141.113297410309315 ] } },
{ "type": "Feature", "properties": { "Name": "Leila", "Address": "2-803 Leila Avenue Winnipeg MB R2V 3J7", "Latitude": 49.9533116, "Longitude": -97.1474446, "city": "Winnipeg", "county": "Division No. 11", "state": "Manitoba", "state_code": "MB", "country": "Canada", "country_co": "CA" }, "geometry": { "type": "Point", "coordinates": [ -10814404.064739754423499, 6438194.155203429982066 ] } },
{ "type": "Feature", "properties": { "Name": "Lowe Farm", "Address": "52 Main St. Lowe Farm MB R0G 1E0", "Latitude": 49.3548644, "Longitude": -97.5876289, "city": "Rural Municipality of Morris", "county": "Division No. 3", "state": "Manitoba", "state_code": "MB", "country": "Canada", "country_co": "CA" }, "geometry": { "type": "Point", "coordinates": [ -10863405.156870948150754, 6335290.375826663337648 ] } },
{ "type": "Feature", "properties": { "Name": "Lundar", "Address": "Unit B � 85 Main Street Lundar MB R0C 1Y0", "Latitude": 50.695478, "Longitude": -98.0383102, "city": "Rural Municipality of Coldwell", "county": "Division No. 18", "state": "Manitoba", "state_code": "MB", "country": "Canada", "country_co": "CA" }, "geometry": { "type": "Point", "coordinates": [ -10913574.769696997478604, 6567603.058099774643779 ] } },
{ "type": "Feature", "properties": { "Name": "Manitou", "Address": "330 Main St. Manitou MB R0G 1G0", "Latitude": 49.241177, "Longitude": -98.538272, "city": "Manitou", "county": "Division No. 4", "state": "Manitoba", "state_code": "MB", "country": "Canada", "country_co": "CA" }, "geometry": { "type": "Point", "coordinates": [ -10969230.262689087539911, 6315883.607100225053728 ] } },
{ "type": "Feature", "properties": { "Name": "McPhillips", "Address": "1450 McPhillips Street Winnipeg Manitoba R2V 3C5", "Latitude": 49.943775, "Longitude": -97.156624, "city": "Winnipeg", "county": "Division No. 11", "state": "Manitoba", "state_code": "MB", "country": "Canada", "country_co": "CA" }, "geometry": { "type": "Point", "coordinates": [ -10815425.910873541608453, 6436544.349193551577628 ] } },
{ "type": "Feature", "properties": { "Name": "Miami", "Address": "517 Norton Ave. Miami MB R0G 1H0", "Latitude": 49.3703157, "Longitude": -98.2401074, "city": "Rural Municipality of Thompson", "county": "Division No. 3", "state": "Manitoba", "state_code": "MB", "country": "Canada", "country_co": "CA" }, "geometry": { "type": "Point", "coordinates": [ -10936038.731244506314397, 6337931.417674279771745 ] } },
{ "type": "Feature", "properties": { "Name": "Moosehorn", "Address": "11 Railway Avenue Moosehorn MB R0C 2E0", "Latitude": 51.2927639, "Longitude": -98.4240077, "city": "Rural Municipality of Grahamdale", "county": "Division No. 18", "state": "Manitoba", "state_code": "MB", "country": "Canada", "country_co": "CA" }, "geometry": { "type": "Point", "coordinates": [ -10956510.418997237458825, 6673244.56985205411911 ] } },
{ "type": "Feature", "properties": { "Name": "Morden", "Address": "430 Stephen Street�Morden MB R6M 1T6", "Latitude": 49.189594, "Longitude": -98.10395, "city": "Morden", "county": "Division No. 3", "state": "Manitoba", "state_code": "MB", "country": "Canada", "country_co": "CA" }, "geometry": { "type": "Point", "coordinates": [ -10920881.758808771148324, 6307092.973488927818835 ] } },
{ "type": "Feature", "properties": { "Name": "Morris", "Address": "100 Main St. Morris MB R0G 1K0", "Latitude": 49.347269, "Longitude": -97.3646968, "city": "Morris", "county": "Division No. 3", "state": "Manitoba", "state_code": "MB", "country": "Canada", "country_co": "CA" }, "geometry": { "type": "Point", "coordinates": [ -10838588.469017472118139, 6333992.42227250430733 ] } },
{ "type": "Feature", "properties": { "Name": "Oakbank", "Address": "Unit 2 � 40 Co-op Drive Oakbank MB R0E 1J0", "Latitude": 49.9278978, "Longitude": -96.8409626, "city": "Rural Municipality of Springfield", "county": "Division No. 12", "state": "Manitoba", "state_code": "MB", "country": "Canada", "country_co": "CA" }, "geometry": { "type": "Point", "coordinates": [ -10780286.64456244930625, 6433798.360894614830613 ] } },
{ "type": "Feature", "properties": { "Name": "Pembina", "Address": "2800 Pembina Hwy Winnipeg Manitoba R3T 5P3", "Latitude": 49.791055, "Longitude": -97.156579, "city": "Winnipeg", "county": "Division No. 11", "state": "Manitoba", "state_code": "MB", "country": "Canada", "country_co": "CA" }, "geometry": { "type": "Point", "coordinates": [ -10815420.901496455073357, 6410168.573285036720335 ] } },
{ "type": "Feature", "properties": { "Name": "Pinawa", "Address": "40 Burrows Road Pinawa MB R0E 1L0", "Latitude": 50.1480908, "Longitude": -95.8753215, "city": "Local Government District of Pinawa", "county": "Division No. 1", "state": "Manitoba", "state_code": "MB", "country": "Canada", "country_co": "CA" }, "geometry": { "type": "Point", "coordinates": [ -10672791.969021392986178, 6471962.168502415530384 ] } },
{ "type": "Feature", "properties": { "Name": "Pine Falls", "Address": "11 Linden Street Pine Falls MB R0E 1M0", "Latitude": 50.5644747, "Longitude": -96.2175535, "city": "Powerview-Pine Falls", "county": "Division No. 1", "state": "Manitoba", "state_code": "MB", "country": "Canada", "country_co": "CA" }, "geometry": { "type": "Point", "coordinates": [ -10710889.060994556173682, 6544612.939494444057345 ] } },
{ "type": "Feature", "properties": { "Name": "Plum Coulee", "Address": "257 Main Ave. Plum Coulee MB R0G 1R0", "Latitude": 49.190726, "Longitude": -97.760018, "city": "Plum Coulee", "county": "Division No. 3", "state": "Manitoba", "state_code": "MB", "country": "Canada", "country_co": "CA" }, "geometry": { "type": "Point", "coordinates": [ -10882595.423701258376241, 6307285.787424674257636 ] } },
{ "type": "Feature", "properties": { "Name": "Regent", "Address": "1536 Regent Ave. W Winnipeg Manitoba R2C 3B4", "Latitude": 49.896257, "Longitude": -97.059651, "city": "Winnipeg", "county": "Division No. 11", "state": "Manitoba", "state_code": "MB", "country": "Canada", "country_co": "CA" }, "geometry": { "type": "Point", "coordinates": [ -10804630.925892844796181, 6428328.72782414406538 ] } },
{ "type": "Feature", "properties": { "Name": "Riverbend", "Address": "2-2526 Main Street Winnipeg MB R2V 4Y1", "Latitude": 49.958152, "Longitude": -97.093642, "city": "Winnipeg", "county": "Division No. 11", "state": "Manitoba", "state_code": "MB", "country": "Canada", "country_co": "CA" }, "geometry": { "type": "Point", "coordinates": [ -10808414.786704400554299, 6439031.65631306078285 ] } },
{ "type": "Feature", "properties": { "Name": "Riverton", "Address": "51 Main Street Riverton MB R0C 2R0", "Latitude": 50.996561, "Longitude": -96.998463, "city": "Rural Municipality of Bifrost � Riverton", "county": "Division No. 18", "state": "Manitoba", "state_code": "MB", "country": "Canada", "country_co": "CA" }, "geometry": { "type": "Point", "coordinates": [ -10797819.508890187367797, 6620685.426000610925257 ] } },
{ "type": "Feature", "properties": { "Name": "Sanford", "Address": "7 Mellow St. Sanford MB R0G 2J0", "Latitude": 49.6803239, "Longitude": -97.44370593, "city": "Rural Municipality of Macdonald", "county": "Division No. 10", "state": "Manitoba", "state_code": "MB", "country": "Canada", "country_co": "CA" }, "geometry": { "type": "Point", "coordinates": [ -10847383.725137090310454, 6391096.534466993063688 ] } },
{ "type": "Feature", "properties": { "Name": "Selkirk 233 Main", "Address": "233 Main Street Selkirk MB R1A 1S1", "Latitude": 50.137884, "Longitude": -96.881901, "city": "Selkirk", "county": "Division No. 13", "state": "Manitoba", "state_code": "MB", "country": "Canada", "country_co": "CA" }, "geometry": { "type": "Point", "coordinates": [ -10784843.886404341086745, 6470189.252114740200341 ] } },
{ "type": "Feature", "properties": { "Name": "Accelerate-Hubert", "Address": "233 Main Street Selkirk MB R1A 1S1", "Latitude": 50.1442328, "Longitude": -96.87496898000001, "city": "Selkirk", "county": "Division No. 13", "state": "Manitoba", "state_code": "MB", "country": "Canada", "country_co": "CA" }, "geometry": { "type": "Point", "coordinates": [ -10784072.217467773705721, 6471291.991233052685857 ] } },
{ "type": "Feature", "properties": { "Name": "Selkirk Manitoba Avenue", "Address": "1-1012 Manitoba Avenue Selkirk MB R1A 4M2", "Latitude": 50.1476078, "Longitude": -96.8783574, "city": "Selkirk", "county": "Division No. 13", "state": "Manitoba", "state_code": "MB", "country": "Canada", "country_co": "CA" }, "geometry": { "type": "Point", "coordinates": [ -10784449.414656765758991, 6471878.263100089505315 ] } },
{ "type": "Feature", "properties": { "Name": "Sprague", "Address": "2102 Main St N. Sprague MB R0A 1Z0", "Latitude": 49.0363971, "Longitude": -95.6428873, "city": "Rural Municipality of Piney", "county": "Division No. 1", "state": "Manitoba", "state_code": "MB", "country": "Canada", "country_co": "CA" }, "geometry": { "type": "Point", "coordinates": [ -10646917.512234451249242, 6281039.478428524918854 ] } },
{ "type": "Feature", "properties": { "Name": "St. Anne�s", "Address": "515 St. Anne�s Road Winnipeg Manitoba R2M 3E7", "Latitude": 49.840914, "Longitude": -97.093835, "city": "Winnipeg", "county": "Division No. 11", "state": "Manitoba", "state_code": "MB", "country": "Canada", "country_co": "CA" }, "geometry": { "type": "Point", "coordinates": [ -10808436.271366123110056, 6418770.395530694164336 ] } },
{ "type": "Feature", "properties": { "Name": "St. Mary�s", "Address": "1033�St. Mary�s Winnipeg MB R2M 3S8", "Latitude": 49.8384854, "Longitude": -97.1119593, "city": "Winnipeg", "county": "Division No. 11", "state": "Manitoba", "state_code": "MB", "country": "Canada", "country_co": "CA" }, "geometry": { "type": "Point", "coordinates": [ -10810453.859213106334209, 6418351.200849712826312 ] } },
{ "type": "Feature", "properties": { "Name": "Starbuck", "Address": "21 Main Street Starbuck MB R0G 2P0", "Latitude": 49.7697726, "Longitude": -97.6185049, "city": "Rural Municipality of Macdonald", "county": "Division No. 10", "state": "Manitoba", "state_code": "MB", "country": "Canada", "country_co": "CA" }, "geometry": { "type": "Point", "coordinates": [ -10866842.257468681782484, 6406499.56725603248924 ] } },
{ "type": "Feature", "properties": { "Name": "Stonewall", "Address": "410 Centre Avenue Stonewall MB R0C 2Z0", "Latitude": 50.134514, "Longitude": -97.32753, "city": "Stonewall", "county": "Division No. 14", "state": "Manitoba", "state_code": "MB", "country": "Canada", "country_co": "CA" }, "geometry": { "type": "Point", "coordinates": [ -10834451.079767055809498, 6469603.967750582844019 ] } },
{ "type": "Feature", "properties": { "Name": "Teulon", "Address": "76 Main Street Teulon MB R0C 3B0", "Latitude": 50.386405, "Longitude": -97.262674, "city": "Teulon", "county": "Division No. 14", "state": "Manitoba", "state_code": "MB", "country": "Canada", "country_co": "CA" }, "geometry": { "type": "Point", "coordinates": [ -10827231.34287216886878, 6513465.262218660674989 ] } },
{ "type": "Feature", "properties": { "Name": "Vita", "Address": "100 1st St. West Vita MB R0A 2K0", "Latitude": 49.1352298, "Longitude": -96.5645028, "city": "Rural Municipality of Stuartburn", "county": "Division No. 1", "state": "Manitoba", "state_code": "MB", "country": "Canada", "country_co": "CA" }, "geometry": { "type": "Point", "coordinates": [ -10749511.280401639640331, 6297838.289544257335365 ] } },
{ "type": "Feature", "properties": { "Name": "Whitemouth", "Address": "15 Railway Avenue Whitemouth MB R0E 2G0", "Latitude": 49.954798, "Longitude": -95.979766, "city": "Rural Municipality of Whitemouth", "county": "Division No. 1", "state": "Manitoba", "state_code": "MB", "country": "Canada", "country_co": "CA" }, "geometry": { "type": "Point", "coordinates": [ -10684418.677577551454306, 6438451.327812176197767 ] } },
{ "type": "Feature", "properties": { "Name": "Winkler", "Address": "295 Main St. Winkler MB R6W 4B1", "Latitude": 49.181464, "Longitude": -97.938474, "city": "Winkler", "county": "Division No. 3", "state": "Manitoba", "state_code": "MB", "country": "Canada", "country_co": "CA" }, "geometry": { "type": "Point", "coordinates": [ -10902461.054750261828303, 6305708.317493088543415 ] } },
{ "type": "Feature", "properties": { "Name": "Winnipeg Beach", "Address": "23 Stitt Street Winnipeg Beach MB R0C 3G0", "Latitude": 50.4964841, "Longitude": -96.967978, "city": "Winnipeg Beach", "county": "Division No. 18", "state": "Manitoba", "state_code": "MB", "country": "Canada", "country_co": "CA" }, "geometry": { "type": "Point", "coordinates": [ -10794425.934213355183601, 6532706.276166874915361 ] } },
{ "type": "Feature", "properties": { "Name": "Winnipeg Square", "Address": "50-360 Main Street Winnipeg Manitoba R3C 3Z8", "Latitude": 49.8938475, "Longitude": -97.1385662, "city": "Winnipeg", "county": "Division No. 11", "state": "Manitoba", "state_code": "MB", "country": "Canada", "country_co": "CA" }, "geometry": { "type": "Point", "coordinates": [ -10813415.725772695615888, 6427912.35308123100549 ] } }
]
}
